{
  "type": "FeatureCollection",
  "features": [
    {
      "geometry": {
        "coordinates": [],
        "type": "Polygon"
      },
      "properties": {
        "city": "Syracuse",
        "holc_grade": "A",
        "mean": 62.89012267538005,
        "name": "James Street Section",
        "neighborho": 5232,
        "state": "NY"
      },
      "type": "Feature"
    },
    {
      "geometry": {
        "coordinates": [],
        "type": "Polygon"
      },
      "properties": {
        "city": "Syracuse",
        "holc_grade": "A",
        "mean": 57.26080937814706,
        "name": "Gifford Manor",
        "neighborho": 5225,
        "state": "NY"
      },
      "type": "Feature"
    },
    {
      "geometry": {
        "coordinates": [],
        "type": "MultiPolygon"
      },
      "properties": {
        "city": "Syracuse",
        "holc_grade": "A",
        "mean": 62.6400461642796,
        "name": "Berkley and Bradford Hills",
        "neighborho": 5223,
        "state": "NY"
      },
      "type": "Feature"
    },
    {
      "geometry": {
        "coordinates": [],
        "type": "MultiPolygon"
      },
      "properties": {
        "city": "Syracuse",
        "holc_grade": "A",
        "mean": 61.24587911616945,
        "name": "Onondaga Park and Strathmore",
        "neighborho": 5211,
        "state": "NY"
      },
      "type": "Feature"
    },
    {
      "geometry": {
        "coordinates": [],
        "type": "MultiPolygon"
      },
      "properties": {
        "city": "Syracuse",
        "holc_grade": "A",
        "mean": 63.301460239165195,
        "name": "Maple Drive and Orvilton Park",
        "neighborho": 5227,
        "state": "NY"
      },
      "type": "Feature"
    },
    {
      "geometry": {
        "coordinates": [],
        "type": "Polygon"
      },
      "properties": {
        "city": "Utica",
        "holc_grade": "A",
        "mean": 62.2287715329368,
        "name": "Fairview Heights",
        "neighborho": 2328,
        "state": "NY"
      },
      "type": "Feature"
    },
    {
      "geometry": {
        "coordinates": [],
        "type": "Polygon"
      },
      "properties": {
        "city": "Utica",
        "holc_grade": "A",
        "mean": 59.3171346345352,
        "name": "Brenton Hills",
        "neighborho": 2329,
        "state": "NY"
      },
      "type": "Feature"
    },
    {
      "geometry": {
        "coordinates": [],
        "type": "Polygon"
      },
      "properties": {
        "city": "Utica",
        "holc_grade": "A",
        "mean": 60.849305418378016,
        "name": "East Parkway",
        "neighborho": 2326,
        "state": "NY"
      },
      "type": "Feature"
    },
    {
      "geometry": {
        "coordinates": [],
        "type": "Polygon"
      },
      "properties": {
        "city": "Utica",
        "holc_grade": "A",
        "mean": 56.83396015907189,
        "name": "Sherman Hills",
        "neighborho": 2325,
        "state": "NY"
      },
      "type": "Feature"
    },
    {
      "geometry": {
        "coordinates": [],
        "type": "Polygon"
      },
      "properties": {
        "city": "Canton",
        "holc_grade": "A",
        "mean": 60.55647537128,
        "name": "Ridgewood Addition",
        "neighborho": 6626,
        "state": "OH"
      },
      "type": "Feature"
    },
    {
      "geometry": {
        "coordinates": [],
        "type": "Polygon"
      },
      "properties": {
        "city": "Canton",
        "holc_grade": "A",
        "mean": 66.76943775240613,
        "name": "Harter Heights",
        "neighborho": 6606,
        "state": "OH"
      },
      "type": "Feature"
    },
    {
      "geometry": {
        "coordinates": [],
        "type": "Polygon"
      },
      "properties": {
        "city": "Springfield",
        "holc_grade": "A",
        "mean": 72.09021201817474,
        "name": "Ridgewood",
        "neighborho": 3275,
        "state": "OH"
      },
      "type": "Feature"
    },
    {
      "geometry": {
        "coordinates": [],
        "type": "Polygon"
      },
      "properties": {
        "city": "Springfield",
        "holc_grade": "A",
        "mean": 67.30456670871095,
        "name": "Hills and Dales",
        "neighborho": 3274,
        "state": "OH"
      },
      "type": "Feature"
    },
    {
      "geometry": {
        "coordinates": [],
        "type": "Polygon"
      },
      "properties": {
        "city": "Springfield",
        "holc_grade": "A",
        "mean": 64.32877568447098,
        "name": "Cedar Add",
        "neighborho": 3272,
        "state": "OH"
      },
      "type": "Feature"
    },
    {
      "geometry": {
        "coordinates": [],
        "type": "Polygon"
      },
      "properties": {
        "city": "Springfield",
        "holc_grade": "A",
        "mean": 77.73035886157868,
        "name": "Harshman Addition",
        "neighborho": 3252,
        "state": "OH"
      },
      "type": "Feature"
    },
    {
      "geometry": {
        "coordinates": [],
        "type": "Polygon"
      },
      "properties": {
        "city": "Springfield",
        "holc_grade": "A",
        "mean": 76.34888391213043,
        "name": "Roseland",
        "neighborho": 3262,
        "state": "OH"
      },
      "type": "Feature"
    },
    {
      "geometry": {
        "coordinates": [],
        "type": "Polygon"
      },
      "properties": {
        "city": "Springfield",
        "holc_grade": "A",
        "mean": 70.12765089212,
        "name": "Clairmont Addition",
        "neighborho": 3259,
        "state": "OH"
      },
      "type": "Feature"
    },
    {
      "geometry": {
        "coordinates": [],
        "type": "Polygon"
      },
      "properties": {
        "city": "Springfield",
        "holc_grade": "A",
        "mean": 82.3462984339534,
        "name": "Perrin WOods",
        "neighborho": 3256,
        "state": "OH"
      },
      "type": "Feature"
    },
    {
      "geometry": {
        "coordinates": [],
        "type": "Polygon"
      },
      "properties": {
        "city": "Toledo",
        "holc_grade": "A",
        "mean": 80.77354567657066,
        "name": "Wildwood Addition",
        "neighborho": 2272,
        "state": "OH"
      },
      "type": "Feature"
    },
    {
      "geometry": {
        "coordinates": [],
        "type": "Polygon"
      },
      "properties": {
        "city": "Toledo",
        "holc_grade": "A",
        "mean": 81.77875218337527,
        "name": "Eagle Point Colony",
        "neighborho": 2270,
        "state": "OH"
      },
      "type": "Feature"
    }
  ]
}
